[{"criteria detail":"Unique space for events with beautifully restored machine control panels in situ, a gold-coffered glass ceiling and original Art Deco finishings","criteria match":".89","currency":"£ Sterling","latitude":51.4818135,"longitude":-0.1444632,"name":"Control Room A","status":"Available - Not Held","total cost":"36960","town":"London","website":"https://controlroomabattersea.com/"},{"criteria detail":"Highest private dining room in London on 40 floor of Heron Tower serving fine dining inspired by broad European and British influences","criteria match":".94","currency":"£ Sterling","latitude":51.5162529,"longitude":-0.0811942,"name":"Duck and Waffle","status":"Held","total cost":"36300","town":"London","website":"https://duckandwaffle.com/london/"},{"criteria detail":"London’s highest dedicated event space located on Floor 42 of the Leadenhall Building offering panoramic views.","criteria match":".94","currency":"£ Sterling","latitude":51.513642,"longitude":-0.0822278,"name":"Landing Forty Two","status":"Held : Shared option ","total cost":"36150","town":"London","website":"https://landingfortytwo.com/hire/"},{"criteria detail":"Rooftop bar serving cocktails, burgers and gourmet mains in a contemporary space with skyline views","criteria match":".95","currency":"£ Sterling","latitude":51.5106829,"longitude":-0.1308645,"name":"LSQ Rooftop","status":"Available - Not Held","total cost":"12000","town":"London","website":"www.1leicestersquarerooftop.com/?utm_source=google-maps&utm_medium=link-profile&utm_campaign=social-media"},{"criteria detail":"Delivers a unique blend of Japanese, Brazilian and Peruvian cuisine, culture, music and striking design to the City of London.","criteria match":".96","currency":"£ Sterling","latitude":51.5162529,"longitude":-0.0809449,"name":"Sushisamba City","status":"Held","total cost":"26450","town":"London","website":"www.sushisamba.com/locations/uk/london-heron-tower"},{"criteria detail":"5* hotel set in the Grade I listed former Midland Bank headquarters in the City of London","criteria match":".98","currency":"£ Sterling","latitude":51.5136153,"longitude":-0.090129,"name":"The Ned","status":"Held : Option expires 06/07/2026","total cost":"18850","town":"London","website":"www.thened.com"}]