[{"criteria detail":"4* Italian style mansion house hotel set in 110 acres.","criteria match":".96","currency":"£ Sterling","latitude":51.7961,"longitude":0.2067917,"name":"Down Hall Country House Hotel","status":"Held : Option expires 03/07/2026","total cost":"39630","town":"Bishops Stortford","website":"www.downhall.co.uk"},{"criteria detail":"4* hotel in a Victorian mansion set in 80 acres of woodland, parkland and formal gardens\rDo not hold bedrooms until written confirmation received","criteria match":".83","currency":"£ Sterling","latitude":51.3986445,"longitude":-0.7881712,"name":"Easthampstead Park","status":"Held : Option expires 03/07/2026","total cost":"27050","town":"Wokingham","website":"www.eastpark.co.uk"},{"criteria detail":"Luxurious 5* countryside hotel set in 40 acres of parkland with a lake, located on the edge of historic Windsor Great Park\rNo beds available night prior","criteria match":".87","currency":"£ Sterling","latitude":51.4351599,"longitude":-0.5899321,"name":"Fairmont Windsor Park Hotel","status":"Held : Shared option ","total cost":"68500","town":"Egham","website":"www.fairmont-windsorpark.com"},{"criteria detail":"4* standard country house estate hotel set amidst  200 acres of grounds","criteria match":".98","currency":"£ Sterling","latitude":51.8288356,"longitude":-0.0406372,"name":"Hanbury Manor Marriott Hotel","status":"Held : Option expires 30/06/2026","total cost":"28700","town":"Ware","website":"www.marriott.com/hotels/travel/stngs-hanbury-manor-marriott-hotel-and-country-club/?scid=bb1a189a-fec3-4d19-a255-54ba596febe2"},{"criteria detail":"Luxurious contemporary hotel with full spa located on the edge of the 200-acre Syon Park Estate","criteria match":".95","currency":"£ Sterling","latitude":51.4794676,"longitude":-0.3154673,"name":"Hilton London Syon Park","status":"Held : Shared option expires 03/07/2026","total cost":"22790","town":"Brentford","website":"www.hilton.com/en/hotels/lhrsphi-hilton-london-syon-park/"},{"criteria detail":"Grade II listed Manor House with modern annex in 38 acres of gardens.  Its original features combine with contemporary style.","criteria match":".93","currency":"£ Sterling","latitude":51.9591026,"longitude":-0.843383,"name":"Horwood House","status":"Held : Shared option expires 29/06/2026","total cost":"26870","town":"Milton Keynes","website":"www.horwoodhouse.co.uk/"},{"criteria detail":"Grade II Listed historic country house set within 10 acres of picturesque grounds overlooking the Broadwater lake","criteria match":".98","currency":"£ Sterling","latitude":51.3750155,"longitude":-0.4422352,"name":"Oatlands Park Hotel","status":"Held : Option expires 03/07/2026","total cost":"20830","town":"Weybridge","website":"www.oatlandsparkhotel.com"},{"criteria detail":"5* country house hotel set amidst 123 acres of Surrey Parkland.","criteria match":".89","currency":"£ Sterling","latitude":51.35632,"longitude":-0.7098095,"name":"Pennyhill Park Hotel","status":"Available - Not Held : Shared option ","total cost":"61080","town":"Bagshot","website":"www.exclusive.co.uk/pennyhill-park/?utm_source=google&utm_medium=local_search&utm_campaign=pennyhill_park"},{"criteria detail":"4* country house hotel housed in a striking red brick Queen Anne mansion dating back to 1705","criteria match":".93","currency":"£ Sterling","latitude":51.4085475,"longitude":-0.6355585,"name":"Royal Berkshire Ascot","status":"Available - Not Held : Shared option ","total cost":"33900","town":"Ascot","website":"www.exclusive.co.uk/royal-berkshire/"},{"criteria detail":"4* hotel nestled in 12 acres of tranquil Hertfordshire countryside and the former Georgian country residence of Lord Mountbatten.","criteria match":".91","currency":"£ Sterling","latitude":51.7346034,"longitude":-0.3268117,"name":"Sopwell House Hotel","status":"Held : Shared option expires 26/06/2026","total cost":"40130","town":"St Albans","website":"www.sopwellhouse.co.uk"},{"criteria detail":"Luxury 5* hotel housed in an elegant ivy-covered manor that dates to the nineteenth century.","criteria match":".89","currency":"£ Sterling","latitude":51.0152744,"longitude":-0.2639121,"name":"South Lodge Hotel","status":"Held : Shared option ","total cost":"61986","town":"Horsham","website":"www.exclusive.co.uk/south-lodge/"},{"criteria detail":"4* premium golf resort and conference hotel surrounded by 500 acres of countryside","criteria match":".93","currency":"£ Sterling","latitude":52.5536729,"longitude":-1.736906,"name":"The Belfry","status":"Held : Shared option ","total cost":"28530","town":"Sutton Coldfield","website":"www.thebelfry.co.uk/"},{"criteria detail":"4* hotel set in 25 acres of beautiful landscaped grounds on the banks of the River Thames","criteria match":".93","currency":"£ Sterling","latitude":51.4277931,"longitude":-0.3187169,"name":"The Lensbury","status":"Held : Shared option ","total cost":"27550","town":"Teddington","website":"www.lensbury.com"},{"criteria detail":"4* country house hotel set on a 13-acre countryside estate dating back to the seventeenth century, located 10 mins from J9 of M25","criteria match":".91","currency":"£ Sterling","latitude":51.2109205,"longitude":-0.3957193,"name":"Wotton House","status":"Held : Shared option ","total cost":"44450","town":"Dorking","website":"https://wottonhouse.co.uk/"}]