[{"criteria detail":"An independent members’ club offers contemporary spaces full of light and plants. Situated just off Trafalgar Sq.","criteria match":".98","currency":"£ Sterling","latitude":51.5097956,"longitude":-0.1276715,"name":"Arboretum","status":"Held","total cost":"2205","town":"London","website":"https://www.arboretumlondon.com"},{"criteria detail":"5* Hotel, situated in the heart of the theatre district, close to the Covent Garden piazza with London's best restaurants, bars and shopping.","criteria match":"1","currency":"£ Sterling","latitude":51.5145658,"longitude":-0.1271199,"name":"Covent Garden Hotel","status":"Held : Option expires 23/07/2026","total cost":"1927.5","town":"London","website":"https://www.firmdale.com/london/covent-garden-hotel"},{"criteria detail":"Lavish 5* boutique hotel in the heart of Holborn, created from a Baroque-style, Grade II listed former church.","criteria match":".98","currency":"£ Sterling","latitude":51.5179842,"longitude":-0.1203092,"name":"L’Oscar London","status":"Held : Option expires 29/07/2026","total cost":"2175","town":"London","website":"https://www.loscarlondon.com"},{"criteria detail":"Penthouse on the third floor of Charlotte House. The loft consists of two open spaces with exposed brickwork, wooden floors and open beams.","criteria match":".96","currency":"£ Sterling","latitude":51.5255108,"longitude":-0.0809613,"name":"Lumiere - Shoreditch Loft","status":"Held","total cost":"3816.45","town":"London","website":"https://www.lumierelondon.com/shoreditch.html"},{"criteria detail":"One of the most prestigious private dining clubs in the world located in the heart of Belgravia","criteria match":".93","currency":"£ Sterling","latitude":51.4989886,"longitude":-0.1563822,"name":"Mosimann’s","status":"Available - Not Held : Do not hold dates","total cost":"2850","town":"London","website":"https://www.mosimann.com"},{"criteria detail":"World-renowned arts & media private members club, based in Soho, created in the 1980’s by a group of mostly women publishers","criteria match":".98","currency":"£ Sterling","latitude":51.5131958,"longitude":-0.1319701,"name":"The Groucho Club","status":"Held","total cost":"2700","town":"London","website":"https://www.thegrouchoclub.com"},{"criteria detail":"The 13 bedroom Georgian Townhouse is located across the cobbles of St Johns Square, behind The Zetter Hotel.","criteria match":".96","currency":"£ Sterling","latitude":51.5230962,"longitude":-0.1038718,"name":"The Zetter Townhouse Clerkenwell","status":"Held : Option expires 24/07/2026","total cost":"3200","town":"London","website":"https://thezetter.com/clerkenwell/meetings-celebrations"},{"criteria detail":"Luxury boutique hotel in historic building dating from 1910.","criteria match":"1","currency":"£ Sterling","latitude":51.5304798,"longitude":-0.0557422,"name":"Town Hall Hotel","status":"Held : Option expires 21/07/2026","total cost":"1725","town":"London","website":"https://www.townhallhotel.com"},{"criteria detail":"Contemporary 5* hotel in the heart of Shoreditch just relaunched by Virgin Hotels.","criteria match":".98","currency":"£ Sterling","latitude":51.5236884,"longitude":-0.0805469,"name":"Virgin Hotel London Shoreditch","status":"Held : Option expires 28/07/2026","total cost":"2825","town":"London","website":"https://virginhotels.com/london-shoreditch"}]