[{"criteria detail":"4* contemporary event spaces a stones throw from London Bridge and Borough Market","criteria match":".96","currency":"£ Sterling","latitude":51.5035154899836,"longitude":-0.09223558026448,"name":"10 Union Street","status":"Available - Not Held","total cost":"5904","town":"London","website":"www.10unionstreet.co.uk"},{"criteria detail":"One of Central London’s most sustainable venues. Situated in an enviable position near Southbank, it offers flexible contemporary event space.","criteria match":"1","currency":"£ Sterling","latitude":51.5065381586285,"longitude":-0.10673547091824,"name":"15 Hatfields","status":"Held","total cost":"5400","town":"London","website":"www.15hatfields.com"},{"criteria detail":"Ornate, Grade II listed venue with a mixture of contemporary and traditional event spaces dating back to 1775","criteria match":"1","currency":"£ Sterling","latitude":51.515566246506,"longitude":-0.120687481709902,"name":"De Vere Grand Connaught Rooms","status":"Held : Shared option expires 02/07/2026","total cost":"5340","town":"London","website":"www.devere.co.uk/grand-connaught-rooms/"},{"criteria detail":"Contemporary conference venue in the premises of The Royal College of Pathologists located approx 6 mins walk from Aldgate East tube station.","criteria match":"1","currency":"£ Sterling","latitude":51.5132604537549,"longitude":-0.072170353337107,"name":"Events @ No.6","status":"Held","total cost":"6120","town":"London","website":"www.eventsatno6.com/"},{"criteria detail":"5* hotel steeped in regal history and housed in a grade II listed building residing on the former grounds of King Henry VIII's Bridewell Palace.","criteria match":"1","currency":"£ Sterling","latitude":51.5122507798168,"longitude":-0.104653922602272,"name":"Hyatt Regency London Blackfriars","status":"Held : Shared option expires 25/06/2026","total cost":"5400","town":"London","website":"www.hyatt.com/en-US/hotel/england-united-kingdom/hyatt-regency-london-blackfriars/lonrb"},{"criteria detail":"Unique studio event space on the third floor of a fully renovated paper factory 5 minutes walk from Old Street station.","criteria match":"1","currency":"£ Sterling","latitude":51.5299893321369,"longitude":-0.091114625856339,"name":"Lumiere - Underwood","status":"Held","total cost":"6166.2","town":"London","website":"www.lumierelondon.com/underwood-world-six-spaces-1-under-one-roof-event-venues/"}]