[{"criteria detail":"4* contemporary event spaces a stones throw from London Bridge and Borough Market","criteria match":".96","currency":"£ Sterling","latitude":51.5035263,"longitude":-0.0924444,"name":"10 Union Street","status":"Available - Not Held","total cost":"5904","town":"London","website":"www.10unionstreet.co.uk"},{"criteria detail":"One of Central London’s most sustainable venues. Situated in an enviable position near Southbank, it offers flexible contemporary event space.","criteria match":"1","currency":"£ Sterling","latitude":51.5067356,"longitude":-0.1070755,"name":"15 Hatfields","status":"Held","total cost":"5400","town":"London","website":"www.15hatfields.com"},{"criteria detail":"Ornate, Grade II listed venue with a mixture of contemporary and traditional event spaces dating back to 1775","criteria match":"1","currency":"£ Sterling","latitude":51.5156208,"longitude":-0.1204834,"name":"De Vere Grand Connaught Rooms","status":"Held : Shared option expires 02/07/2026","total cost":"5340","town":"London","website":"www.devere.co.uk/grand-connaught-rooms/"},{"criteria detail":"Contemporary conference venue in the premises of The Royal College of Pathologists located approx 6 mins walk from Aldgate East tube station.","criteria match":"1","currency":"£ Sterling","latitude":51.513236,"longitude":-0.072596,"name":"Events @ No.6","status":"Held","total cost":"6120","town":"London","website":"www.eventsatno6.com/"},{"criteria detail":"Grade II listed contemporary conference venue in Moorgate, just a minute from the station.","criteria match":"","currency":"£ Sterling","latitude":51.5173276,"longitude":-0.0882272,"name":"Eventspace at Salisbury House","status":"Available - Not Held","total cost":"7632","town":"London","website":"https://www.workspace.co.uk/eventspace"},{"criteria detail":"5* hotel steeped in regal history and housed in a grade II listed building residing on the former grounds of King Henry VIII's Bridewell Palace.","criteria match":"1","currency":"£ Sterling","latitude":51.512223,"longitude":-0.1046223,"name":"Hyatt Regency London Blackfriars","status":"Held : Shared option expires 25/06/2026","total cost":"5400","town":"London","website":"www.hyatt.com/en-US/hotel/england-united-kingdom/hyatt-regency-london-blackfriars/lonrb"},{"criteria detail":"Contemporary 4* hotel located a 2 minute walk from Tower Hill tube station","criteria match":"","currency":"£ Sterling","latitude":51.510716,"longitude":-0.076689,"name":"Leonardo Royal London City","status":"Pending : Awaiting response","total cost":"0","town":"London","website":"www.leonardohotels.co.uk/hotels/london/leonardo-london-city"},{"criteria detail":"Unique studio event space on the third floor of a fully renovated paper factory 5 minutes walk from Old Street station.","criteria match":"1","currency":"£ Sterling","latitude":51.5296774,"longitude":-0.0910345,"name":"Lumiere - Underwood","status":"Held","total cost":"6166.2","town":"London","website":"www.lumierelondon.com/underwood-world-six-spaces-1-under-one-roof-event-venues/"},{"criteria detail":"Upscale 4* hotel within 10 minutes' walk of the Houses of Parliament, the London Eye and Waterloo railway station","criteria match":".95","currency":"£ Sterling","latitude":51.5014,"longitude":-0.1163,"name":"Park Plaza County Hall","status":"Held : Shared option expires 24/06/2026","total cost":"5394","town":"London","website":"www.parkplazacountyhall.com/"}]