[{"criteria detail":"Modern 4* hotel set in Barcelona's financial district \rExclusivity of level 1 event spaces Monday- Wednesday with 2 breakouts on level 2","criteria match":".87","currency":"€ Euro","latitude":41.388682,"longitude":2.131637,"name":"Hilton Barcelona","status":"Held : Shared option","total cost":"79830","town":"Barcelona","website":"www.hilton.com/en/hotels/bcnhitw-hilton-barcelona/"},{"criteria detail":"5* Hotel located in the middle of Paseo de Gracia, right in the heart of the city and close to Gaudi's buildings","criteria match":".94","currency":"€ Euro","latitude":41.39317,"longitude":2.16396,"name":"Majestic Hotel & Spa","status":"Held : Shared option","total cost":"124010","town":"Barcelona","website":"www.majestichotelgroup.com/en/barcelona/hotel-majestic"},{"criteria detail":"Upscale 5* hotel located in the city centre. \rExclusivity of floor -1,0 and 1","criteria match":".87","currency":"€ Euro","latitude":41.39083,"longitude":2.14156,"name":"Melia Barcelona Sarria","status":"Available - Not Held","total cost":"58910","town":"Barcelona","website":"www.melia.com/en/hotels/spain/barcelona/melia-barcelona-sarria"},{"criteria detail":"4* hotel in the heart of Barcelona’s business district, next to Avenida Diagonal and L'illa shopping center\rExclusive hire of MICE Floor. 4 breakout rooms on floor","criteria match":".93","currency":"€ Euro","latitude":41.388884,"longitude":2.136299,"name":"NH Constanza","status":"Held : Shared option expires 25/06/2026","total cost":"84206.5","town":"Barcelona","website":"www.nh-hotels.com/en/hotel/nh-collection-barcelona-constanza?utm_campaign=local-gmb&utm_medium=organic_search&utm_source=google_gmb"},{"criteria detail":"5* Urban resort in Barcelona located in the elegant uptown area of the city, and adjacent to Palau de Congressos de Catalunya \rSpaces on same floor and adjacent to each other","criteria match":".79","currency":"€ Euro","latitude":41.3810414,"longitude":2.1086899,"name":"Torre Melina Gran Meliá","status":"Held : Shared option ","total cost":"83835.5","town":"Barcelona","website":"www.melia.com/en/hotels/spain/barcelona/torre-melina-gran-melia"}]