[{"criteria detail":"4* hotel set in an elegant eighteenth century mansion with its own garden located at the gates of Richmond Park.","criteria match":"1","currency":"£ Sterling","latitude":51.4512052,"longitude":-0.2967234,"name":"Harbour Hotel Richmond","status":"Held : Option expires 29/07/2026","total cost":"10520","town":"Richmond","website":"https://www.harbourhotels.co.uk/our-hotels/london/harbour-hotel-richmond"},{"criteria detail":"Luxurious contemporary hotel with full spa located on the edge of the 200-acre Syon Park Estate","criteria match":".95","currency":"£ Sterling","latitude":51.4794676,"longitude":-0.3154673,"name":"Hilton London Syon Park","status":"Held : Shared option ","total cost":"8400","town":"Brentford","website":"https://www.hilton.com/en/hotels/lhrsphi-hilton-london-syon-park"},{"criteria detail":"Contemporary 4* hotel overlooking the Grand Union Canal","criteria match":"1","currency":"£ Sterling","latitude":51.4829782,"longitude":-0.3124498,"name":"Holiday Inn Brentford Lock","status":"Held : Option expires 07/08/2026","total cost":"6520","town":"London","website":"https://www.hibrentfordlock.co.uk"},{"criteria detail":"Historic mansion dating from nineteenth century located within 34 acres of Cannizaro Park and adjacent to Wimbledon Common.","criteria match":"1","currency":"£ Sterling","latitude":51.4242719,"longitude":-0.2292964,"name":"Hotel du Vin Wimbledon","status":"Held : Option expires 07/08/2026","total cost":"7908","town":"Wimbledon","website":"https://www.hotelduvin.com/locations/wimbledon"},{"criteria detail":"4* hotel in a beautiful Georgian building located at the top of Richmond Hill with stunning views of Petersham Meadows and the River Thames","criteria match":"1","currency":"£ Sterling","latitude":51.4517966,"longitude":-0.2972606,"name":"Richmond Hill Hotel","status":"Held : Option expires 05/08/2026","total cost":"8710","town":"Richmond","website":"https://www.richmondhill-hotel.co.uk/en/default.html"},{"criteria detail":"4* hotel set in 25 acres of beautiful landscaped grounds on the banks of the River Thames","criteria match":"1","currency":"£ Sterling","latitude":51.4277931,"longitude":-0.3187169,"name":"The Lensbury","status":"Held : Option expires 31/07/2026","total cost":"8550","town":"Teddington","website":"https://www.lensbury.com"},{"criteria detail":"Upmarket 4* hotel set in a Victorian country house overlooking the River Thames from the top of Richmond Hill","criteria match":"1","currency":"£ Sterling","latitude":51.4509972,"longitude":-0.2993005,"name":"The Petersham Hotel","status":"Held : Option expires 28/07/2026","total cost":"8300","town":"Richmond","website":"https://www.petershamhotel.co.uk"},{"criteria detail":"4* hotel in Victorian Grade II listed building within 6 acres of landscaped gardens on the exclusive Coombe Estate.","criteria match":"1","currency":"£ Sterling","latitude":51.4242628,"longitude":-0.2742029,"name":"Warren House","status":"Held","total cost":"7480","town":"Kingston upon Thames","website":"https://www.warrenhouse.com"}]