[{"criteria detail":"Formerly a grand Victorian hotel, now restored as a fine venue with grand state rooms combined with cutting edge technology.","criteria match":".91","currency":"£ Sterling","latitude":51.5069499,"longitude":-0.1260138,"name":"8 Northumberland","status":"Held : Shared option expires 28/07/2026 ","total cost":"63600","town":"London","website":"https://www.8northumberland.co.uk/venue"},{"criteria detail":"Unique Central London Venue restored to its former grandeur, extensively refurbished, dominating the east side of Bloomsbury Square.","criteria match":"1","currency":"£ Sterling","latitude":51.5188499,"longitude":-0.1216278,"name":"Bloomsbury Ballroom","status":"Held","total cost":"44730","town":"London","website":"https://thebloomsburyballroom.com"},{"criteria detail":"Ornate, Grade II listed venue with a mixture of contemporary and traditional event spaces dating back to 1775","criteria match":".95","currency":"£ Sterling","latitude":51.5156208,"longitude":-0.1204834,"name":"De Vere Grand Connaught Rooms","status":"Held : Shared option expires 24/07/2026","total cost":"33986.4","town":"London","website":"https://www.devere.co.uk/grand-connaught-rooms"},{"criteria detail":"Home to the Honourable Artillery Company, just a stones throw from Moorgate in the heart of the City of London","criteria match":".96","currency":"£ Sterling","latitude":51.5229682,"longitude":-0.088292,"name":"HAC","status":"Held","total cost":"65500","town":"London","website":"https://hac.org.uk/events/venue-spaces"},{"criteria detail":"Contemporary 5* hotel with a bronzed–metal facade 6 mins walk from Southwark tube station.","criteria match":".95","currency":"£ Sterling","latitude":51.5056536,"longitude":-0.1011258,"name":"Hilton London Bankside","status":"Held : Shared option expires 23/07/2026","total cost":"48948","town":"London","website":"https://www.hilton.com/en/hotels/lonsbhi-hilton-london-bankside"},{"criteria detail":"Iconic 5* hotel in Covent Garden built in 1908 blending Edwardian grandeur with modern comfort.","criteria match":".93","currency":"£ Sterling","latitude":51.5125403,"longitude":-0.1189807,"name":"Hilton Waldorf","status":"Held : Shared option expires 29/07/2026","total cost":"57750","town":"London","website":"https://www.hilton.com/en/hotels/lonwahi-the-waldorf-hilton-london"},{"criteria detail":"5* Contemporary hotel steeped in history, this luxury London hotel was once the site of a royal residence.","criteria match":".98","currency":"£ Sterling","latitude":51.5038788,"longitude":-0.1504181,"name":"Intercontinental London Park Lane","status":"Held","total cost":"54710","town":"London","website":"https://www.ihg.com/intercontinental/hotels/gb/en/london/lonhb/hoteldetail"},{"criteria detail":"Luxury 5* hotel originally built as a stately town house","criteria match":".95","currency":"£ Sterling","latitude":51.5126103,"longitude":-0.1509128,"name":"London Marriott Grosvenor Square","status":"Held : Shared option","total cost":"45810","town":"London","website":"https://www.marriott.com/hotels/travel/londt-london-marriott-hotel-grosvenor-square"},{"criteria detail":"Luxury 5* hotel located in London’s prestigious Grosvenor Square.","criteria match":".95","currency":"£ Sterling","latitude":51.5108004,"longitude":-0.151122,"name":"The Biltmore Mayfair","status":"Held : Shared option ","total cost":"48950","town":"London","website":"https://www.thebiltmorehotels.com/biltmore-mayfair"}]