[{"criteria detail":"4* hotel located in the heart of London’s legal district","criteria match":"1","currency":"£ Sterling","latitude":51.5138175,"longitude":-0.1089092,"name":"Apex Temple Court","status":"Held : Option expires 10/07/2026","total cost":"1350","town":"London","website":"https://"},{"criteria detail":"5* contemporary hotel set on the culturally vibrant South Bank","criteria match":".98","currency":"£ Sterling","latitude":51.5079055,"longitude":-0.1052799,"name":"Bankside Hotel","status":"Held : Option expires 08/07/2026","total cost":"1237.5","town":"London","website":"https://"},{"criteria detail":"French rooftop restaurant and bar in the City financial district near Bank station, upscale dining with terrace views","criteria match":".93","currency":"£ Sterling","latitude":51.5134888,"longitude":-0.0911834,"name":"Coq D’Argent","status":"Available - Not Held","total cost":"5000","town":"London","website":"https://www.coqdargent.co.uk"},{"criteria detail":"Fashionable 4* hotel set among office blocks","criteria match":".91","currency":"£ Sterling","latitude":51.5058894,"longitude":-0.1048681,"name":"Hoxton Southwark","status":"Available - Not Held","total cost":"5062.5","town":"London","website":"https://thehoxton.com/london/southwark/hotels"},{"criteria detail":"Housed on the eighth floor of the iconic South Bank landmark, OXO offers a spectacular garden terrace, panoramic views of the London skyline","criteria match":".89","currency":"£ Sterling","latitude":51.508358,"longitude":-0.1082386,"name":"OXO Tower Restaurant Bar & Brasserie","status":"Available - Not Held","total cost":"5000","town":"London","website":"https://oxotowerrestaurant.com"},{"criteria detail":"Retro-chic bar and grill and cocktail bar with vintage tableware","criteria match":".93","currency":"£ Sterling","latitude":51.5061005,"longitude":-0.09955,"name":"The Refinery Bankside","status":"Available - Not Held","total cost":"2025","town":"London","website":"https://www.drakeandmorgan.co.uk/the-refinery-bankside"},{"criteria detail":"Coworking & flexible office and event space in Holborn with a roof terrace for 100 and exclusive use for up to 350","criteria match":".98","currency":"£ Sterling","latitude":51.5180327,"longitude":-0.1174446,"name":"Uncommon Holborn","status":"Held : Option expires 28/07/2026","total cost":"5490","town":"London","website":"https://uncommon.co.uk/event-space"}]