[{"criteria detail":"Unique 4* hotel set on the grounds of Alton Towers theme park themed around the incredible explorer Sir Algenon","criteria match":"1","currency":"£ Sterling","latitude":52.9883143717139,"longitude":-1.88865312808668,"name":"Alton Towers Hotel","status":"Held : Option expires 09/07/2026","total cost":"1760","town":"Alton","website":"https://www.altontowers.com/short-breaks/alton-towers-hotel"},{"criteria detail":"4* hotel in Grade II listed building in Spinningfields district on banks of River Irwell","criteria match":"1","currency":"£ Sterling","latitude":53.4795655,"longitude":-2.2567424,"name":"Manchester Marriott Victoria and Albert","status":"Held : Option expires 09/07/2026","total cost":"2112","town":"Manchester","website":"https://www.marriott.com/hotels/travel/manva-manchester-marriott-victoria-and-albert-hotel"},{"criteria detail":"4* Riverside retreat in London, moments from the city centre, Canary Wharf","criteria match":".93","currency":"£ Sterling","latitude":51.5067844,"longitude":-0.0042982,"name":"Radisson Blu Hotel, London Canary Wharf East","status":"Held : Shared option expires 09/07/2026","total cost":"3854","town":"London","website":"https://www.radissonhotels.com/en-us/hotels/radisson-blu-london-canary-wharf-east"},{"criteria detail":"Immersive team challenge game based on the popular 90s TV show.","criteria match":"1","currency":"£ Sterling","latitude":53.4776885,"longitude":-2.2560647,"name":"The Crystal Maze LIVE Experience","status":"Held","total cost":"570","town":"Manchester","website":"https://the-crystal-maze.com/manchester"},{"criteria detail":"4* contemporary hotel situated in lower 23 floors of the landmark Beetham Tower in the heart of Manchester.","criteria match":"1","currency":"£ Sterling","latitude":53.4754075,"longitude":-2.2506355,"name":"The Manchester Deansgate Hotel","status":"Held","total cost":"1942","town":"Manchester","website":"https://www.ihg.com/spnd/hotels/gb/en/manchester/mandg/hoteldetail/meetings-events"}]