[{"criteria detail":"Glamorous restaurant and lively late night bar with unparalleled views of London situated on the fourteenth floor of 120 Fenchurch Street.","criteria match":".89","currency":"£ Sterling","latitude":51.5121105519597,"longitude":-0.080548856815364,"name":"14 Stories","status":"Available - Not Held","total cost":"2000","town":"London","website":"https://14stories.co.uk/"},{"criteria detail":"Fashionable 4* hotel set among office blocks","criteria match":".87","currency":"£ Sterling","latitude":51.5062443765579,"longitude":-0.105249020199001,"name":"Hoxton Southwark","status":"Available - Not Held","total cost":"3100","town":"London","website":"https://thehoxton.com/london/southwark/hotels"},{"criteria detail":"Elegant, nineteenth century former tea warehouse alongside Tower Bridge serving classic French cuisine.","criteria match":".91","currency":"£ Sterling","latitude":51.5035689448236,"longitude":-0.073501532667466,"name":"Le Pont de la Tour","status":"Available - Not Held","total cost":"840","town":"London","website":"www.lepontdelatour.co.uk/"},{"criteria detail":"Elevated above Broadgate Circle, Los Mochis London City provides an unparalleled experience that blends the rich flavours of Mexico and Japan, with a backdrop of breathtaking city views","criteria match":".93","currency":"£ Sterling","latitude":51.5181246304785,"longitude":-0.083178751901628,"name":"Los Mochis London City","status":"Available - Not Held","total cost":"2500","town":"London","website":"www.losmochis.co.uk/lc/london-city"},{"criteria detail":"Sophisticated restaurant serving contemporary South-East Asian dishes in an ornate setting.","criteria match":".95","currency":"£ Sterling","latitude":51.5066743145362,"longitude":-0.110159411875726,"name":"Sticky Mango Waterloo","status":"Available - Not Held","total cost":"1000","town":"London","website":"www.stickymango.co.uk/"},{"criteria detail":"Restaurant that offers traditional Cantonese dining and dim sum, in a contemporary space with excellent views over Broadgate Circle","criteria match":".93","currency":"£ Sterling","latitude":51.518987047233,"longitude":-0.083675858076568,"name":"Yauatcha City","status":"Available - Not Held","total cost":"2000","town":"London","website":"www.yauatcha.com"}]