[{"criteria detail":"Design-led airport hotel with geometric façade and vast, open lobby.\r8 minute drive from PwC offices","criteria match":".98","currency":"€ Euro","latitude":52.30672,"longitude":4.75588,"name":"Hilton Amsterdam Airport Schiphol","status":"Held : Option expires 29/07/2026","total cost":"21900","town":"Amsterdam","website":"https://www.hilton.com/en/hotels/amsaphi-hilton-amsterdam-airport-schiphol"},{"criteria detail":"A 2-minute walk from Amsterdam South train station, this contemporary hotel in a sleek high-rise is 3 km from the Van Gogh Museum and 6 km from the Anne Frank House. - 17 minute drive from PwC offices","criteria match":".96","currency":"€ Euro","latitude":52.3398,"longitude":4.87126,"name":"INNSiDE Amsterdam","status":"Held : Option expires 31/07/2026","total cost":"20500","town":"Amsterdam","website":"https://"},{"criteria detail":"Down-to-earth 4-star hotel overlooking the Rembrandtpark\r10 minute drive from PwC offices","criteria match":".98","currency":"€ Euro","latitude":52.367931,"longitude":4.84401,"name":"Leonardo Hotel Amsterdam Rembrandtpark","status":"Held : Option expires 05/08/2026","total cost":"20900","town":"Amsterdam","website":"https://www.leonardo-hotels.com/amsterdam/leonardo-hotel-amsterdam-rembrandtpark"},{"criteria detail":"Upscale 4-star airport hotel\r13 minute drive from PwC offices","criteria match":"1","currency":"€ Euro","latitude":52.278972,"longitude":4.749922,"name":"Radisson Blu Amsterdam Airport","status":"Held : Option expires 29/07/2026","total cost":"14900","town":"Schipol-Rijk","website":"https://www.radissonhotels.com/en-us/hotels/radisson-blu-amsterdam-schiphol-airport"},{"criteria detail":"Modern extended-stay hotel near Schiphol Airport with apartment-style suites, approximately 10km from Amsterdam city center\r9 minute drive from PwC offices","criteria match":"1","currency":"€ Euro","latitude":52.3294135,"longitude":4.7864247,"name":"Residence Inn by Marriott Amsterdam Schiphol Airport","status":"Held : Option expires 27/07/2026","total cost":"16900","town":"Badhoevedorp","website":"https://www.marriott.com/en-us/hotels/amsbi-residence-inn-amsterdam-schiphol-airport/overview/"},{"criteria detail":"Contemporary 4-star hotel set in a polished redbrick building opposite the World Fashion Centre, 15 mins by tram from the city centre.\r9 minute drive from PwC offices","criteria match":".98","currency":"€ Euro","latitude":52.357616,"longitude":4.844526,"name":"WestCord Fashion Hotel Amsterdam","status":"Held : Option expires 29/07/2026","total cost":"20000","town":"Amsterdam","website":"https://westcordhotels.com/hotel/fashion-hotel-amsterdam"}]