[{"criteria detail":"4* contemporary hotel in the heart of Leeds only a 4 minute walk from the train station","criteria match":".96","currency":"£ Sterling","latitude":53.7966131,"longitude":-1.5580163,"name":"Crowne Plaza Leeds","status":"Held : Option expires 31/07/2026 ","total cost":"1787","town":"Leeds","website":"https://www.ihg.com/crowneplaza/hotels/gb/en/leeds/leeuk/hoteldetail?cm_mmc=GoogleMaps-_-CP-_-GB-_-LEEUK"},{"criteria detail":"4* contemporary hotel situated beside the Leeds and Liverpool Canal","criteria match":".96","currency":"£ Sterling","latitude":53.7933727,"longitude":-1.5496992,"name":"DoubleTree Leeds","status":"Held : Option expires 24/07/2026 ","total cost":"1386","town":"Leeds","website":"https://www.hilton.com/en/hotels/lbaccdi-doubletree-leeds-city-centre"},{"criteria detail":"Sports venue that is the home of Leeds Rhinos, Yorkshire County Cricket Club.","criteria match":"1","currency":"£ Sterling","latitude":53.8163563,"longitude":-1.5822247,"name":"Headingley Stadium","status":"Held : Option expires 24/07/2026","total cost":"1516.35","town":"Leeds","website":"https://headingleystadium.events"},{"criteria detail":"4* Hotel that is set in a grand building which has preserved its original art deco style.\rNo natural daylight ","criteria match":".96","currency":"£ Sterling","latitude":53.8000408,"longitude":-1.5467434,"name":"Radisson Blu Leeds","status":"Held : Option expires 31/07/2026","total cost":"2081","town":"Leeds","website":"https://www.radissonblu.co.uk/hotel-leeds"},{"criteria detail":"4* hotel set in a Grade II listed building ln the heart of the city centre\rNo / limited natural daylight ","criteria match":".98","currency":"£ Sterling","latitude":53.7966736,"longitude":-1.5499844,"name":"The Met Hotel","status":"Held : Option expires 24/07/2026 ","total cost":"1787","town":"Leeds","website":"https://www.leedsmet-hotel.com"}]